%  GPST                  latitude(deg) longitude(deg)  height(m)   Q  ns   sdn(m)   sde(m)   sdu(m)  sdne(m)  sdeu(m)  sdun(m) age(s)  ratio
2024/01/31 14:15:19.000   52.354007464    4.957749745    -7.1986   2   6   1.9459   0.7595   3.0809   0.9092   1.2322   2.2047   0.00    2.8
2024/01/31 14:15:20.000   52.354019212    4.957755396    -6.0048   2   6   1.3845   0.5393   2.1904   0.6463   0.8749   1.5684   0.00    1.1
2024/01/31 14:15:21.000   52.354031448    4.957758432    -2.6306   1   6   0.1196   0.0118   0.2092   0.0317   0.0427   0.1577   0.00    4.5
2024/01/31 14:15:22.000   52.354025587    4.957758531    -3.6060   2   6   0.9834   0.3822   1.5554   0.4583   0.6203   1.1144   0.00    1.7
2024/01/31 14:15:23.000   52.354040435    4.957764027    -1.5071   2   6   0.8788   0.3418   1.3898   0.4095   0.5543   0.9954   0.00    1.8
2024/01/31 14:15:24.000   52.354053443    4.957767853     0.1891   1   6   0.0683   0.0089   0.1167   0.0178   0.0240   0.0885   0.00    3.9
2024/01/31 14:15:25.000   52.354061137    4.957771195     1.1739   1   6   0.0581   0.0090   0.1034   0.0185   0.0249   0.0767   0.00    7.8
2024/01/31 14:15:26.000   52.354067599    4.957776052     2.2642   2   6   0.6910   0.2697   1.0932   0.3217   0.4359   0.7818   0.00    1.8
2024/01/31 14:15:27.000   52.354072036    4.957779170     2.9219   2   6   0.6497   0.2541   1.0283   0.3024   0.4101   0.7347   0.00    1.7
2024/01/31 14:15:28.000   52.354072382    4.957779277     3.0968   2   6   0.6143   0.2408   0.9728   0.2859   0.3879   0.6943   0.00    1.0
2024/01/31 14:15:29.000   52.354072354    4.957778889     3.3156   2   6   0.5834   0.2293   0.9245   0.2714   0.3687   0.6591   0.00    1.4
2024/01/31 14:15:30.000   52.354076990    4.957780852     3.8641   2   6   0.5562   0.2192   0.8820   0.2587   0.3518   0.6279   0.00    1.1
2024/01/31 14:15:31.000   52.354082197    4.957782658     4.8013   2   6   0.5522   0.2111   0.8801   0.2528   0.3434   0.6301   0.00    1.4
2024/01/31 14:15:32.000   52.354083437    4.957783212     5.1223   2   6   0.5268   0.2032   0.8374   0.2423   0.3293   0.5988   0.00    1.4
2024/01/31 14:15:33.000   52.354084913    4.957783885     5.5522   2   5   0.5117   0.1974   0.8069   0.2366   0.3180   0.5775   0.00    1.1
2024/01/31 14:15:34.000   52.354086439    4.957785132     6.0053   2   5   0.4990   0.1922   0.7799   0.2316   0.3083   0.5593   0.00    1.1
2024/01/31 14:15:35.000   52.354086793    4.957786217     6.3360   2   5   0.4870   0.1873   0.7550   0.2268   0.2994   0.5424   0.00    1.4
2024/01/31 14:15:36.000   52.354087021    4.957788013     6.6617   2   5   0.4756   0.1828   0.7319   0.2223   0.2910   0.5266   0.00    1.0
2024/01/31 14:15:37.000   52.354082753    4.957785540     6.4965   2   6   0.4602   0.1774   0.7098   0.2148   0.2820   0.5098   0.00    1.1
2024/01/31 14:15:38.000   52.354083561    4.957784225     7.4132   1   5   0.1832   0.0136   0.3629   0.0444   0.0615   0.2573   0.00    3.3
2024/01/31 14:15:39.000   52.354084792    4.957784954     7.7010   1   6   0.1786   0.0135   0.3530   0.0437   0.0604   0.2505   0.00    3.3
2024/01/31 14:15:40.000   52.354086817    4.957784969     8.0536   1   6   0.6317   0.0906   1.1845   0.2372   0.3242   0.8648   0.00    4.7
2024/01/31 14:15:41.000   52.354082921    4.957784757     7.9232   2   6   0.4361   0.1606   0.6923   0.1966   0.2611   0.4973   0.00    1.5
2024/01/31 14:15:42.000   52.354082634    4.957784454     8.0262   2   6   0.4227   0.1567   0.6707   0.1909   0.2540   0.4810   0.00    1.7
2024/01/31 14:15:43.000   52.354082184    4.957783850     8.0411   2   6   0.4108   0.1531   0.6520   0.1856   0.2475   0.4670   0.00    2.0
2024/01/31 14:15:44.000   52.354082035    4.957784683     7.8424   2   6   0.3999   0.1497   0.6351   0.1806   0.2414   0.4541   0.00    1.2
2024/01/31 14:15:45.000   52.354080516    4.957785224     7.5055   2   6   0.3897   0.1465   0.6193   0.1759   0.2356   0.4421   0.00    1.7
2024/01/31 14:15:46.000   52.354080620    4.957785392     7.5019   2   6   0.3800   0.1435   0.6043   0.1714   0.2301   0.4308   0.00    2.0
2024/01/31 14:15:47.000   52.354081008    4.957785874     7.5671   2   6   0.3708   0.1406   0.5902   0.1672   0.2249   0.4200   0.00    1.7
2024/01/31 14:15:48.000   52.354081002    4.957787232     7.3677   2   6   0.3620   0.1379   0.5766   0.1631   0.2198   0.4096   0.00    1.5
2024/01/31 14:15:49.000   52.354078713    4.957786399     6.5522   2   6   0.7615   0.1405   1.4811   0.2252   0.3123   1.0408   0.00    1.0
2024/01/31 14:15:50.000   52.354063816    4.957781466     3.0946   2   7   0.5824   0.1336   1.0838   0.1883   0.2578   0.7679   0.00    1.0
2024/01/31 14:15:51.000   52.354065803    4.957780612     3.4189   2   7   0.5116   0.1290   0.9235   0.1726   0.2345   0.6581   0.00    1.8
2024/01/31 14:15:52.000   52.354063749    4.957778843     2.8923   2   7   0.4701   0.1251   0.8294   0.1622   0.2192   0.5938   0.00    1.0
2024/01/31 14:15:53.000   52.354062816    4.957778230     2.6482   2   7   0.4499   0.1234   0.7852   0.1598   0.2162   0.5634   0.00    1.1
2024/01/31 14:15:54.000   52.354061680    4.957776063     2.4596   2   7   0.4339   0.1218   0.7513   0.1575   0.2132   0.5398   0.00    1.1
2024/01/31 14:15:55.000   52.354060593    4.957775518     2.3866   2   7   0.4206   0.1202   0.7238   0.1551   0.2103   0.5206   0.00    1.1
2024/01/31 14:15:56.000   52.354060051    4.957774715     2.4268   2   7   0.4090   0.1186   0.7004   0.1528   0.2073   0.5040   0.00    1.4
2024/01/31 14:15:57.000   52.354059475    4.957774370     2.4937   2   6   0.3985   0.1171   0.6799   0.1505   0.2044   0.4895   0.00    1.4
2024/01/31 14:15:58.000   52.354059702    4.957773307     2.6743   2   6   0.4217   0.1172   0.7218   0.1568   0.2122   0.5232   0.00    1.2
2024/01/31 14:15:59.000   52.354063924    4.957774516     3.4778   2   6   0.4097   0.1151   0.7006   0.1527   0.2074   0.5072   0.00    1.2
2024/01/31 14:16:00.000   52.354064424    4.957774573     3.4885   2   6   0.4130   0.1146   0.7058   0.1539   0.2085   0.5123   0.00    1.4
2024/01/31 14:16:01.000   52.354066826    4.957774927     3.9865   2   6   0.4017   0.1126   0.6862   0.1499   0.2038   0.4974   0.00    1.7
2024/01/31 14:16:02.000   52.354066768    4.957775130     3.9476   2   6   0.3848   0.1110   0.6548   0.1455   0.1980   0.4738   0.00    1.9
2024/01/31 14:16:03.000   52.354067537    4.957775901     4.0184   2   7   0.3755   0.1102   0.6364   0.1438   0.1955   0.4605   0.00    2.3
2024/01/31 14:16:04.000   52.354073893    4.957778743     4.5009   1   7   0.0644   0.0103   0.1139   0.0216   0.0288   0.0849   0.00    3.4
2024/01/31 14:16:05.000   52.354072670    4.957778815     4.2327   1   7   0.1232   0.0139   0.2205   0.0383   0.0512   0.1645   0.00    6.9
2024/01/31 14:16:06.000   52.354075168    4.957778731     5.2127   2   6   0.3597   0.1064   0.6080   0.1384   0.1886   0.4400   0.00    2.3
2024/01/31 14:16:07.000   52.354073796    4.957778699     5.1229   2   7   0.3514   0.1057   0.5918   0.1368   0.1862   0.4282   0.00    1.8
2024/01/31 14:16:08.000   52.354073144    4.957778989     5.1953   2   6   0.3416   0.1039   0.5755   0.1329   0.1815   0.4154   0.00    1.1
2024/01/31 14:16:09.000   52.354071915    4.957779241     5.1347   2   5   0.3339   0.1027   0.5622   0.1303   0.1777   0.4047   0.00    2.1
2024/01/31 14:16:10.000   52.354076216    4.957792294    39.3133   5   7  30.0000  30.0000  30.0000   0.0000   0.0000   0.0000   0.00    0.0
2024/01/31 14:16:11.000   52.354016371    4.957773806     3.5815   2   5   2.7642   0.9727   3.2210   1.4200   1.4529   2.5964   0.00    0.0
2024/01/31 14:16:12.000   52.354028968    4.957771874     6.3717   2   5   1.9613   0.6897   2.2884   1.0066   1.0300   1.8432   0.00    0.0
2024/01/31 14:16:13.000   52.354061286    4.957780036    10.1401   2   6   1.6663   0.4974   2.6542   0.7087   0.8512   1.9532   0.00    0.0
2024/01/31 14:16:14.000   52.354053655    4.957774384     9.4013   2   6   1.2663   0.4140   1.9820   0.5597   0.6934   1.4564   0.00    0.0
2024/01/31 14:16:15.000   52.354049510    4.957770433     8.8833   2   7   1.0649   0.3635   1.6622   0.4778   0.6027   1.2170   0.00    0.0
2024/01/31 14:16:16.000   52.354044825    4.957766718     7.7735   2   7   0.9364   0.3281   1.4612   0.4237   0.5411   1.0667   0.00    0.0
2024/01/31 14:16:17.000   52.354044783    4.957764882     6.8187   2   7   0.8448   0.3015   1.3190   0.3845   0.4952   0.9604   0.00    0.0
2024/01/31 14:16:18.000   52.354048155    4.957765008     6.1967   2   7   0.7750   0.2804   1.2110   0.3541   0.4591   0.8798   0.00    0.0
2024/01/31 14:16:19.000   52.354067197    4.957740876    45.7653   5   7  30.0000  30.0000  30.0000   0.0000   0.0000   0.0000   0.00    0.0
2024/01/31 14:16:20.000   52.354080601    4.957779033     4.3631   2   7   1.9511   0.7649   3.0715   0.9158   1.2378   2.2023   0.00    1.1
2024/01/31 14:16:21.000   52.354056062    4.957765116     1.5874   2   7   1.2539   0.4581   1.7555   0.4999   0.6277   1.2965   0.00    1.1
2024/01/31 14:16:22.000   52.354052200    4.957762019     2.2581   2   7   1.0045   0.3609   1.3639   0.3826   0.4672   1.0158   0.00    1.0
2024/01/31 14:16:23.000   52.354056448    4.957764121     2.9052   1   6   0.5531   0.0290   1.1291   0.1243   0.1774   0.7901   0.00   34.6
2024/01/31 14:16:24.000   52.354065086    4.957768724     4.4050   1   7   0.4847   0.0257   0.9892   0.1091   0.1557   0.6923   0.00   11.8
2024/01/31 14:16:25.000   52.354069901    4.957773430     4.6710   1   7   0.4367   0.0232   0.8910   0.0984   0.1405   0.6236   0.00   13.8
2024/01/31 14:16:26.000   52.354069596    4.957775239     3.9478   2   7   0.6525   0.2339   0.8783   0.2450   0.2965   0.6549   0.00    1.3
2024/01/31 14:16:27.000   52.354072257    4.957779575     4.0089   2   7   0.6152   0.2227   0.8413   0.2364   0.2907   0.6241   0.00    1.6
2024/01/31 14:16:28.000   52.354076893    4.957786629     4.4280   2   7   0.5761   0.2082   0.7827   0.2191   0.2676   0.5812   0.00    1.6
2024/01/31 14:16:29.000   52.354079560    4.957792235     4.4835   2   6   1.2126   0.4235   0.8201   0.6697   0.4318   0.8082   0.00   39.0
2024/01/31 14:16:30.000   52.354078878    4.957797004     4.3859   2   6   0.9086   0.3206   0.7689   0.4817   0.3534   0.6790   0.00   10.9
2024/01/31 14:16:31.000   52.354078126    4.957802335     4.2745   2   7   0.7775   0.2700   0.7594   0.3920   0.3096   0.6317   0.00    1.7
2024/01/31 14:16:32.000   52.354080838    4.957812573     4.6657   1   7   0.5655   0.1947   0.1562   0.3317   0.1733   0.2955   0.00   12.0
2024/01/31 14:16:33.000   52.354077881    4.957819708     4.1574   1   6   0.5067   0.1745   0.1412   0.2972   0.1554   0.2649   0.00    4.1
2024/01/31 14:16:34.000   52.354076250    4.957829039     3.5613   2   7   0.5850   0.2058   0.6457   0.2761   0.2468   0.5121   0.00    1.1
2024/01/31 14:16:35.000   52.354074540    4.957834910     3.2439   1   7   0.4275   0.1472   0.1188   0.2507   0.1310   0.2235   0.00    5.2
2024/01/31 14:16:36.000   52.354072335    4.957843870     2.7984   2   7   0.5204   0.1825   0.6008   0.2348   0.2169   0.4688   0.00    1.1
2024/01/31 14:16:37.000   52.354070722    4.957852976     2.5592   2   7   1.1577   0.3994   0.6428   0.6518   0.3786   0.7036   0.00    1.3
2024/01/31 14:16:38.000   52.354070851    4.957863796     2.3022   1   5   0.1313   0.0143   0.2349   0.0405   0.0543   0.1753   0.00    3.7
2024/01/31 14:16:39.000   52.354071066    4.957871023     2.4716   1   7   0.1308   0.0142   0.2339   0.0404   0.0541   0.1746   0.00    4.6
2024/01/31 14:16:40.000   52.354054904    4.957870023     1.9146   2   7   0.6546   0.2219   0.6067   0.3327   0.2396   0.5137   0.00    1.1
2024/01/31 14:16:41.000   52.354050690    4.957873136     0.7870   2   4   1.4773   0.2256   2.8083   0.4383   0.4868   1.9781   0.00    1.2
2024/01/31 14:16:42.000   52.354063558    4.957875100     3.8006   2   5   1.4031   0.2126   2.6268   0.4224   0.4869   1.8699   0.00    1.4
2024/01/31 14:16:43.000   52.354041757    4.957874480    -1.4445   2   4   1.3360   0.2041   2.5519   0.3908   0.4426   1.7958   0.00    1.7
2024/01/31 14:16:44.000   52.354096013    4.957875155    12.4345   2   5   1.0834   0.1921   1.9656   0.3480   0.3846   1.4069   0.00    1.5
2024/01/31 14:16:45.000   52.354121688    4.957867158    20.8953   1   6   0.2414   0.0162   0.4858   0.0573   0.0802   0.3419   0.00    4.7
2024/01/31 14:16:46.000   52.354119203    4.957868472    20.1707   2   7   0.4908   0.1647   0.5617   0.2271   0.1870   0.4413   0.00    2.8
2024/01/31 14:16:47.000   52.354115141    4.957866629    19.3821   2   7   0.4680   0.1573   0.5422   0.2138   0.1792   0.4240   0.00    1.7
2024/01/31 14:16:48.000   52.354065854    4.957862903     7.8623   2   4   1.0302   0.1617   1.9786   0.2933   0.3425   1.3891   0.00    2.9
2024/01/31 14:16:49.000   52.354059891    4.957862875     5.9395   2   6   0.8762   0.1528   1.6395   0.2538   0.2815   1.1573   0.00    2.1
2024/01/31 14:16:50.000   52.354067523    4.957864871     7.2437   2   5   0.7206   0.1470   1.3021   0.2255   0.2385   0.9222   0.00    2.2
2024/01/31 14:16:51.000   52.354076191    4.957867428     8.7662   2   6   0.6035   0.1425   1.0415   0.2073   0.2131   0.7413   0.00    2.6
2024/01/31 14:16:52.000   52.354087538    4.957869650    11.0795   2   6   0.5360   0.1383   0.8959   0.1943   0.1970   0.6388   0.00    2.9
2024/01/31 14:16:53.000   52.354090247    4.957869543    11.8205   2   7   0.4834   0.1336   0.7820   0.1802   0.1777   0.5583   0.00    1.3
2024/01/31 14:16:54.000   52.354094598    4.957871476    12.7389   2   7   0.4484   0.1296   0.7074   0.1703   0.1655   0.5058   0.00    1.1
2024/01/31 14:16:55.000   52.354093998    4.957871379    12.8407   2   7   0.4217   0.1261   0.6519   0.1621   0.1561   0.4665   0.00    1.1
2024/01/31 14:16:56.000   52.354094350    4.957871863    13.1957   2   7   0.4000   0.1228   0.6083   0.1551   0.1485   0.4354   0.00    1.2
2024/01/31 14:16:57.000   52.354094970    4.957872334    13.5736   2   7   0.3819   0.1199   0.5728   0.1489   0.1421   0.4100   0.00    1.3
2024/01/31 14:16:58.000   52.354095623    4.957872600    13.9098   2   7   0.3662   0.1171   0.5430   0.1434   0.1365   0.3885   0.00    1.3
2024/01/31 14:16:59.000   52.354097498    4.957873104    14.4909   2   7   0.3524   0.1146   0.5174   0.1384   0.1316   0.3700   0.00    1.2
2024/01/31 14:17:00.000   52.354098800    4.957873458    14.8331   2   7   0.3401   0.1122   0.4952   0.1338   0.1272   0.3537   0.00    1.1
2024/01/31 14:17:01.000   52.354091123    4.957873625    13.1539   2   7   0.5875   0.1132   1.1013   0.1718   0.2024   0.7735   0.00    1.0
2024/01/31 14:17:02.000   52.354081024    4.957873347    10.8320   2   7   0.4494   0.1090   0.8002   0.1440   0.1562   0.5604   0.00    1.0
2024/01/31 14:17:03.000   52.354075665    4.957873711     9.5253   2   7   0.3903   0.1064   0.6680   0.1319   0.1366   0.4666   0.00    1.3
2024/01/31 14:17:04.000   52.354074870    4.957874488     9.1829   2   7   0.3583   0.1048   0.5980   0.1262   0.1290   0.4164   0.00    1.2
2024/01/31 14:17:05.000   52.354074620    4.957874766     9.1225   2   7   0.3358   0.1032   0.5492   0.1218   0.1238   0.3812   0.00    1.1
2024/01/31 14:17:06.000   52.354073030    4.957875199     8.7682   2   7   0.3187   0.1018   0.5127   0.1181   0.1198   0.3548   0.00    1.2
2024/01/31 14:17:07.000   52.354072032    4.957876302     8.6389   2   7   0.3049   0.1004   0.4840   0.1150   0.1167   0.3339   0.00    1.3
2024/01/31 14:17:08.000   52.354070397    4.957875696     8.1429   2   7   0.2921   0.0988   0.4563   0.1111   0.1117   0.3140   0.00    1.3
2024/01/31 14:17:09.000   52.354070344    4.957876565     7.9104   2   7   0.2812   0.0972   0.4335   0.1077   0.1076   0.2976   0.00    1.3
2024/01/31 14:17:10.000   52.354070588    4.957877705     7.7283   2   7   0.2727   0.0961   0.4173   0.1055   0.1059   0.2856   0.00    1.2
2024/01/31 14:17:11.000   52.354070876    4.957878324     7.6206   2   7   0.2643   0.0946   0.4002   0.1026   0.1025   0.2732   0.00    1.0
2024/01/31 14:17:12.000   52.354070825    4.957879886     7.5101   2   7   0.2568   0.0933   0.3852   0.1000   0.0995   0.2623   0.00    1.3
2024/01/31 14:17:13.000   52.354071529    4.957879721     7.8179   2   7   0.2505   0.0923   0.3743   0.0981   0.0983   0.2540   0.00    1.1
2024/01/31 14:17:14.000   52.354072252    4.957879378     7.9621   2   6   0.2455   0.0911   0.3632   0.0953   0.0954   0.2465   0.00    1.2
2024/01/31 14:17:15.000   52.354073596    4.957879497     8.1307   2   7   0.2398   0.0899   0.3528   0.0932   0.0932   0.2388   0.00    1.2
2024/01/31 14:17:16.000   52.354074379    4.957880120     8.3791   2   7   0.2344   0.0888   0.3433   0.0913   0.0911   0.2317   0.00    1.0
2024/01/31 14:17:17.000   52.354073372    4.957880616     8.3322   2   7   0.2293   0.0876   0.3345   0.0894   0.0892   0.2251   0.00    1.0
2024/01/31 14:17:18.000   52.354073151    4.957882077     8.4352   2   7   0.2246   0.0866   0.3263   0.0875   0.0873   0.2189   0.00    1.1
2024/01/31 14:17:19.000   52.354072823    4.957883883     8.4427   2   7   0.2200   0.0855   0.3187   0.0858   0.0856   0.2131   0.00    1.0
2024/01/31 14:17:20.000   52.354072786    4.957884304     8.5198   2   7   0.2157   0.0845   0.3116   0.0841   0.0839   0.2077   0.00    1.0
2024/01/31 14:17:21.000   52.354072665    4.957885386     8.4188   2   7   0.2116   0.0836   0.3048   0.0825   0.0823   0.2025   0.00    1.1
2024/01/31 14:17:22.000   52.354072775    4.957886545     8.4297   2   7   0.2076   0.0826   0.2985   0.0809   0.0807   0.1976   0.00    1.2
2024/01/31 14:17:23.000   52.354072131    4.957887423     8.4268   2   7   0.2038   0.0817   0.2925   0.0794   0.0792   0.1929   0.00    1.3
2024/01/31 14:17:24.000   52.354072001    4.957888394     8.5587   2   7   0.2001   0.0809   0.2868   0.0779   0.0778   0.1885   0.00    1.4
2024/01/31 14:17:25.000   52.354072072    4.957889304     8.7402   2   7   0.1967   0.0801   0.2814   0.0763   0.0764   0.1843   0.00    1.3
2024/01/31 14:17:26.000   52.354072238    4.957890775     8.8552   2   7   0.1932   0.0792   0.2762   0.0750   0.0751   0.1801   0.00    1.3
2024/01/31 14:17:27.000   52.354072015    4.957891839     8.8996   2   7   0.1898   0.0784   0.2712   0.0737   0.0738   0.1761   0.00    1.2
2024/01/31 14:17:28.000   52.354072409    4.957893186     8.9271   2   7   0.1866   0.0776   0.2665   0.0724   0.0726   0.1723   0.00    1.1
2024/01/31 14:17:29.000   52.354071982    4.957894160     9.0345   2   7   0.1834   0.0769   0.2619   0.0711   0.0714   0.1686   0.00    1.0
2024/01/31 14:17:30.000   52.354071353    4.957894480     8.9513   2   6   0.1805   0.0763   0.2587   0.0701   0.0712   0.1655   0.00    1.4
2024/01/31 14:17:31.000   52.354071198    4.957894738     8.8529   2   6   0.1779   0.0758   0.2555   0.0692   0.0708   0.1627   0.00    1.2
2024/01/31 14:17:32.000   52.354072783    4.957896514     8.9636   2   6   0.1756   0.0753   0.2516   0.0676   0.0698   0.1596   0.00    1.3
2024/01/31 14:17:33.000   52.354074532    4.957897965     9.1419   2   5   0.1818   0.0746   0.2608   0.0652   0.0665   0.1704   0.00    1.8
2024/01/31 14:17:34.000   52.354074859    4.957896377     9.0736   2   6   0.1798   0.0740   0.2576   0.0641   0.0658   0.1680   0.00    1.8
2024/01/31 14:17:35.000   52.354025168    4.957862556    27.7888   5   2  29.4172   6.1557  29.9456  13.1447  -7.2801   3.2592   0.00    0.0
2024/01/31 14:17:36.000   52.354241207    4.957884546    39.0603   2   7   1.6518   0.5615   2.0518   0.5469   0.5939   1.5674   0.00    0.0
2024/01/31 14:17:40.000   52.354241945    4.957903019    35.6983   2   6   1.3067   0.4145   1.7311   0.3440   0.3633   1.3328   0.00    0.0
2024/01/31 14:17:41.000   52.354207524    4.957893792    27.4679   2   7   1.0250   0.3387   1.3394   0.3077   0.3378   1.0243   0.00    0.0
2024/01/31 14:17:42.000   52.354233745    4.957878533    31.5815   2   7   0.8736   0.2937   1.1348   0.2756   0.3064   0.8652   0.00    0.0
2024/01/31 14:17:43.000   52.354377383    4.957871580    53.9778   2   7   1.6801   0.5838   2.1373   0.5899   0.6699   1.6245   0.00    1.5
2024/01/31 14:17:44.000   52.354364907    4.957875117    57.0226   2   7   1.1970   0.4160   1.5243   0.4217   0.4792   1.1590   0.00    1.8
2024/01/31 14:17:45.000   52.354337120    4.957872240    59.9665   2   7   0.9792   0.3405   1.2475   0.3454   0.3926   0.9483   0.00    1.1
2024/01/31 14:17:46.000   52.354333706    4.957868969    63.7849   2   7   0.8481   0.2953   1.0810   0.2993   0.3404   0.8214   0.00    1.1
2024/01/31 14:18:03.000   52.354266484    4.957861448    56.0688   2   6   0.7250   0.2699   0.9963   0.2499   0.3002   0.7228   0.00    1.1
2024/01/31 14:18:04.000   52.354209967    4.957848332    48.8547   2   6   0.6458   0.2453   0.9038   0.2083   0.2479   0.6462   0.00    2.4
2024/01/31 14:18:06.000   52.354226417    4.957842210    50.7206   2   7   0.5960   0.2302   0.8431   0.1999   0.2465   0.5979   0.00    1.1
2024/01/31 14:18:07.000   52.354235036    4.957839669    50.5824   2   7   0.5571   0.2182   0.7959   0.1938   0.2444   0.5609   0.00    1.4
2024/01/31 14:18:08.000   52.354231705    4.957840509    49.2381   2   7   0.5260   0.2081   0.7575   0.1882   0.2411   0.5315   0.00    1.1
2024/01/31 14:18:09.000   52.354219242    4.957847988    46.2684   2   7   0.5000   0.1994   0.7251   0.1830   0.2371   0.5071   0.00    2.2
2024/01/31 14:18:10.000   52.354206651    4.957852866    43.1538   2   7   0.4777   0.1918   0.6970   0.1780   0.2329   0.4861   0.00    1.8
2024/01/31 14:18:11.000   52.354195619    4.957861145    40.3321   2   7   0.4582   0.1851   0.6722   0.1734   0.2285   0.4677   0.00    2.4
2024/01/31 14:18:12.000   52.354174899    4.957865924    35.5729   1   7   0.0254   0.0067   0.0364  -0.0029  -0.0044   0.0287   0.00    7.6
2024/01/31 14:18:13.000   52.354167754    4.957870296    34.4026   2   7   0.4232   0.1709   0.6170   0.1601   0.2105   0.4299   0.00    1.1
2024/01/31 14:18:14.000   52.354155750    4.957879522    32.4819   2   7   0.4095   0.1660   0.5996   0.1566   0.2071   0.4170   0.00    1.1
2024/01/31 14:18:15.000   52.354144512    4.957888308    30.7404   2   7   0.3970   0.1616   0.5836   0.1533   0.2036   0.4051   0.00    2.2
2024/01/31 14:18:16.000   52.354139845    4.957896037    30.4839   2   6   0.3900   0.1576   0.5787   0.1491   0.1989   0.4021   0.00    2.3
2024/01/31 14:18:17.000   52.354130845    4.957904308    29.0685   2   7   0.3788   0.1538   0.5638   0.1461   0.1956   0.3910   0.00    1.4
2024/01/31 14:18:18.000   52.354121584    4.957908582    27.6498   2   7   0.3683   0.1503   0.5496   0.1432   0.1925   0.3804   0.00    1.1
2024/01/31 14:18:19.000   52.354114334    4.957908062    26.1806   2   6   0.3586   0.1470   0.5368   0.1404   0.1894   0.3708   0.00    1.0
2024/01/31 14:18:20.000   52.354107025    4.957907373    24.3965   2   7   0.3493   0.1438   0.5240   0.1375   0.1860   0.3612   0.00    2.7
2024/01/31 14:18:21.000   52.354106580    4.957907537    23.9137   2   7   0.3405   0.1409   0.5120   0.1347   0.1828   0.3522   0.00    1.5
2024/01/31 14:18:22.000   52.354100956    4.957910138    22.6870   2   7   0.3309   0.1366   0.4937   0.1297   0.1750   0.3400   0.00    1.0
2024/01/31 14:18:23.000   52.354100546    4.957914444    22.7654   2   6   0.3246   0.1336   0.4802   0.1272   0.1696   0.3320   0.00    1.0
2024/01/31 14:18:24.000   52.354100275    4.957921093    22.8787   2   6   0.3200   0.1317   0.4746   0.1266   0.1691   0.3286   0.00    1.0
2024/01/31 14:18:25.000   52.354097662    4.957923219    22.0782   2   7   0.3795   0.1329   0.6011   0.1477   0.1976   0.4299   0.00    1.8
2024/01/31 14:18:26.000   52.354099333    4.957928800    22.4738   2   6   0.3724   0.1318   0.5867   0.1478   0.1971   0.4204   0.00    1.8
2024/01/31 14:18:27.000   52.354188830    4.957979715    32.7075   5   3  15.7362   1.6780  25.5894   2.9522   4.2207  19.9863   0.00    0.0
2024/01/31 14:18:28.000   52.354055156    4.957944760     7.3512   2   7   1.9435   0.7287   2.9522   0.8979   1.1687   2.1583   0.00    0.0
2024/01/31 14:18:29.000   52.354102491    4.957938290     5.3968   2   7   1.2606   0.4520   1.7307   0.5061   0.6186   1.2930   0.00    0.0
2024/01/31 14:18:30.000   52.354160796    4.957936892    13.7617   2   6   1.0910   0.3596   1.5048   0.3754   0.4460   1.1413   0.00    0.0
2024/01/31 14:18:31.000   52.354170113    4.957942085    16.6802   2   6   0.9823   0.3089   1.3628   0.3022   0.3517   1.0413   0.00    0.0
2024/01/31 14:18:32.000   52.354141148    4.957939673    11.6896   2   6   0.9221   0.2888   1.3282   0.3233   0.3959   1.0070   0.00    0.0
2024/01/31 14:18:33.000   52.354153064    4.957944763    14.7361   2   6   0.8201   0.2687   1.1798   0.3031   0.3760   0.8890   0.00    0.0
2024/01/31 14:18:34.000   52.354160134    4.957948603    16.4580   2   6   0.7525   0.2532   1.0879   0.2886   0.3620   0.8155   0.00    0.0
2024/01/31 14:18:35.000   52.354155254    4.957951529    16.0727   2   6   0.7008   0.2403   1.0188   0.2763   0.3495   0.7605   0.00    0.0
2024/01/31 14:18:36.000   52.354300170    4.958002933    48.4594   2   5   9.8672   1.2197  17.4729   3.1588   4.2168  13.0842   0.00    0.0
2024/01/31 14:18:37.000   52.354079168    4.957970800     4.7589   2   6   1.9507   0.7726   3.0338   0.9217   1.2416   2.1813   0.00    0.0
2024/01/31 14:18:38.000   52.354088730    4.957974490     6.4483   2   6   1.3888   0.5487   2.1580   0.6554   0.8819   1.5528   0.00    0.0
2024/01/31 14:18:39.000   52.354095188    4.957976302     7.7229   2   6   1.1344   0.4483   1.7638   0.5349   0.7202   1.2687   0.00    0.0
2024/01/31 14:18:40.000   52.354101199    4.957978471     8.7285   2   6   0.9826   0.3884   1.5272   0.4632   0.6236   1.0984   0.00    0.0
2024/01/31 14:18:41.000   52.354105569    4.957980304     9.5437   2   6   0.8780   0.3473   1.3646   0.4138   0.5572   0.9811   0.00    0.0
2024/01/31 14:18:42.000   52.354068608    4.957935741    44.7371   5   7  30.0000  30.0000  30.0000  -0.0000  -0.0000   0.0000   0.00    0.0
2024/01/31 14:18:43.000   52.354133180    4.957992450    13.2961   2   6   1.9503   0.7729   3.0317   0.9217   1.2415   2.1799   0.00    2.0
2024/01/31 14:18:44.000   52.354133735    4.957996413    13.5774   1   6   0.1241   0.0126   0.2403   0.0350   0.0479   0.1719   0.00    4.0
2024/01/31 14:18:45.000   52.354134213    4.957996430    13.6532   1   6   0.1016   0.0113   0.1963   0.0290   0.0396   0.1405   0.00    4.1
2024/01/31 14:18:46.000   52.354140409    4.958000657    14.6732   2   6   0.9828   0.3887   1.5260   0.4636   0.6236   1.0977   0.00    2.3
2024/01/31 14:18:47.000   52.354143022    4.958003087    15.4322   1   6   0.0792   0.0100   0.1522   0.0232   0.0316   0.1090   0.00   54.9
2024/01/31 14:18:48.000   52.354141888    4.958003673    15.4178   1   6   0.0725   0.0097   0.1391   0.0214   0.0292   0.0995   0.00    3.7
2024/01/31 14:18:49.000   52.354137223    4.958000863    15.2250   1   6   0.0228   0.0085   0.0314   0.0112   0.0133   0.0236   0.00    4.7
2024/01/31 14:18:50.000   52.354136981    4.958000973    15.2583   1   6   0.0222   0.0084   0.0313   0.0109   0.0132   0.0233   0.00    3.1
2024/01/31 14:18:51.000   52.354127329    4.957998641    14.0118   2   6   0.6467   0.2581   1.0064   0.3042   0.4106   0.7207   0.00    1.0
2024/01/31 14:18:52.000   52.354122559    4.957996472    13.4481   2   6   0.6106   0.2446   0.9506   0.2874   0.3882   0.6798   0.00    2.8
2024/01/31 14:18:53.000   52.354118785    4.957994488    13.0970   2   6   0.5794   0.2329   0.9026   0.2727   0.3688   0.6446   0.00    2.0
2024/01/31 14:18:54.000   52.354112231    4.957993556    12.6946   1   6   0.0212   0.0081   0.0311   0.0102   0.0129   0.0228   0.00    4.4
2024/01/31 14:18:55.000   52.354111163    4.957990253    12.4723   2   6   0.5295   0.2139   0.8242   0.2493   0.3373   0.5875   0.00    2.3
2024/01/31 14:18:56.000   52.354107049    4.957987656    11.9914   2   6   0.5081   0.2058   0.7913   0.2392   0.3239   0.5634   0.00    1.0
2024/01/31 14:18:57.000   52.354103307    4.957984762    11.4973   2   6   0.4889   0.1986   0.7616   0.2301   0.3118   0.5416   0.00    1.3
2024/01/31 14:18:58.000   52.354100274    4.957981839    10.9793   2   6   0.4713   0.1920   0.7346   0.2217   0.3008   0.5216   0.00    1.8
2024/01/31 14:18:59.000   52.354097357    4.957978846    10.4042   2   6   0.4552   0.1860   0.7098   0.2140   0.2907   0.5033   0.00    1.6
2024/01/31 14:19:00.000   52.354094721    4.957976046     9.7393   2   6   0.4402   0.1804   0.6868   0.2069   0.2813   0.4863   0.00    1.0
2024/01/31 14:19:01.000   52.354091969    4.957973909     9.1340   2   6   0.4263   0.1753   0.6655   0.2002   0.2726   0.4704   0.00    1.1
2024/01/31 14:19:02.000   52.354089790    4.957971916     8.6351   2   6   0.4133   0.1706   0.6456   0.1940   0.2644   0.4555   0.00    1.6
2024/01/31 14:19:03.000   52.354088007    4.957970141     8.2304   2   6   0.4010   0.1661   0.6269   0.1881   0.2568   0.4415   0.00    1.7
2024/01/31 14:19:04.000   52.354086236    4.957967850     7.7686   2   6   0.3895   0.1620   0.6094   0.1825   0.2496   0.4282   0.00    1.7
2024/01/31 14:19:05.000   52.354086211    4.957964457     7.4224   2   6   0.3785   0.1581   0.5928   0.1772   0.2428   0.4157   0.00    1.3
2024/01/31 14:19:06.000   52.354089643    4.957960272     7.2351   2   6   0.3682   0.1544   0.5771   0.1722   0.2364   0.4038   0.00    1.1
2024/01/31 14:19:07.000   52.354084286    4.957961353     6.7586   2   6   0.3583   0.1509   0.5622   0.1675   0.2302   0.3924   0.00    1.2
2024/01/31 14:19:08.000   52.354082291    4.957961804     6.5549   2   6   0.3489   0.1476   0.5481   0.1629   0.2244   0.3815   0.00    1.2
2024/01/31 14:19:09.000   52.354081122    4.957961203     6.2933   2   6   0.3399   0.1445   0.5346   0.1585   0.2188   0.3711   0.00    1.3
2024/01/31 14:19:10.000   52.354080171    4.957959627     5.9795   2   6   0.3313   0.1416   0.5217   0.1544   0.2135   0.3612   0.00    1.3
2024/01/31 14:19:11.000   52.354079317    4.957959152     5.7680   2   6   0.3230   0.1388   0.5093   0.1503   0.2084   0.3516   0.00    1.2
2024/01/31 14:19:12.000   52.354077743    4.957958431     5.5179   2   6   0.3151   0.1361   0.4975   0.1465   0.2036   0.3424   0.00    1.0
2024/01/31 14:19:13.000   52.354076235    4.957957120     5.1622   2   6   0.3074   0.1335   0.4862   0.1428   0.1989   0.3335   0.00    1.3
2024/01/31 14:19:14.000   52.354074545    4.957956618     4.9035   2   6   0.3001   0.1311   0.4753   0.1392   0.1944   0.3250   0.00    1.2
2024/01/31 14:19:15.000   52.354073000    4.957956144     4.7181   2   6   0.2930   0.1287   0.4649   0.1357   0.1901   0.3167   0.00    1.3
2024/01/31 14:19:16.000   52.354071132    4.957956464     4.5527   2   6   0.2862   0.1265   0.4548   0.1324   0.1859   0.3088   0.00    1.2
2024/01/31 14:19:17.000   52.354070249    4.957955745     4.4185   2   6   0.2796   0.1243   0.4451   0.1292   0.1819   0.3011   0.00    1.2
2024/01/31 14:19:18.000   52.354038361    4.957937244    -1.1452   2   6   1.9475   0.7744   3.0184   0.9214   1.2403   2.1708   0.00    0.0
2024/01/31 14:19:19.000   52.354048472    4.957940582    -0.9580   2   5   1.5555   0.5887   2.1728   0.7599   0.9198   1.6196   0.00    0.0
2024/01/31 14:19:20.000   52.354047507    4.957939589    -0.6965   2   6   1.2136   0.4677   1.7669   0.5854   0.7379   1.2977   0.00    0.0
2024/01/31 14:19:21.000   52.354049282    4.957938762    -0.0710   2   6   1.0302   0.4004   1.5265   0.4940   0.6340   1.1141   0.00    0.0
2024/01/31 14:19:22.000   52.354051823    4.957938838     0.3618   2   6   0.9103   0.3558   1.3623   0.4350   0.5640   0.9905   0.00    0.0
2024/01/31 14:19:23.000   52.354054383    4.957939460     0.7088   2   6   0.8236   0.3233   1.2406   0.3926   0.5126   0.8995   0.00    0.0
2024/01/31 14:19:24.000   52.354057618    4.957939828     1.2098   2   6   0.7569   0.2982   1.1454   0.3602   0.4727   0.8286   0.00    0.0
2024/01/31 14:19:25.000   52.354080858    4.957934918     4.1020   2   6   1.9469   0.7747   3.0155   0.9213   1.2400   2.1689   0.00    1.3
2024/01/31 14:19:26.000   52.354084855    4.957934679     4.3949   2   6   1.3863   0.5501   2.1452   0.6553   0.8808   1.5441   0.00    1.2
2024/01/31 14:19:27.000   52.354105911    4.957935004    48.2756   5   7  30.0000  30.0000  30.0000  -0.0000   0.0000  -0.0000   0.00    0.0
2024/01/31 14:19:28.000   52.354083539    4.957929611     4.3591   2   6   1.1287   0.4492   1.7473   0.5332   0.7171   1.2561   0.00    2.1
2024/01/31 14:19:29.000   52.354077176    4.957923926     4.2496   2   6   0.9760   0.3891   1.5105   0.4612   0.6204   1.0854   0.00    1.1
2024/01/31 14:19:30.000   52.354074612    4.957921687     4.1978   2   6   0.8718   0.3480   1.3494   0.4119   0.5543   0.9691   0.00    1.1
2024/01/31 14:19:31.000   52.354073416    4.957921216     4.3650   2   6   0.7943   0.3175   1.2300   0.3753   0.5053   0.8827   0.00    1.1
2024/01/31 14:19:32.000   52.354071255    4.957923449     3.9845   1   5   0.1315   0.0142   0.2510   0.0387   0.0519   0.1806   0.00    3.9
2024/01/31 14:19:33.000   52.354075344    4.957923037     4.2104   2   5   0.7310   0.2792   1.1292   0.3392   0.4464   0.8164   0.00    2.2
2024/01/31 14:19:34.000   52.354089759    4.957924287     7.4534   2   6   0.6794   0.2628   1.0437   0.3177   0.4190   0.7545   0.00    1.7
2024/01/31 14:19:35.000   52.354086081    4.957923087     7.1506   2   6   0.6397   0.2489   0.9824   0.2998   0.3962   0.7095   0.00    1.3
2024/01/31 14:19:36.000   52.354083930    4.957920754     7.0289   1   6   0.0665   0.0100   0.1232   0.0212   0.0281   0.0894   0.00    3.0
2024/01/31 14:19:37.000   52.354049351    4.957937273    43.9817   5   7  30.0000  30.0000  30.0000   0.0000  -0.0000   0.0000   0.00    0.0
2024/01/31 14:19:38.000   52.354005632    4.957910521    38.4263   5   7  30.0000  30.0000  30.0000   0.0000   0.0000   0.0000   0.00    0.0
2024/01/31 14:19:39.000   52.354042035    4.957959646    39.0113   5   7  30.0000  30.0000  30.0000   0.0000   0.0000   0.0000   0.00    0.0
2024/01/31 14:19:40.000   52.354042375    4.957825499    41.0476   5   2  28.4350  11.4855  29.3841  16.2798 -12.9462   7.6048   0.00    0.0
2024/01/31 14:19:41.000   52.354158328    4.958023145    31.7683   5   3  14.9498   2.3643  25.9440   5.6460   7.4648  19.6590   0.00    0.0
2024/01/31 14:19:42.000   52.354187198    4.957959609    36.8845   5   3  12.5195   1.2773  27.3478   3.4274   4.7856  18.3098   0.00    0.0
2024/01/31 14:19:43.000   52.354167895    4.957859728    41.8277   5   3  11.4578   3.4591  27.7313  -4.4496  -7.8844  17.6214   0.00    0.0
2024/01/31 14:19:44.000   52.354062072    4.957963066     5.6508   2   4   6.9688   0.8003  13.8072   1.9373   2.5599   9.7244   0.00    0.0
2024/01/31 14:19:45.000   52.354055302    4.957945926    10.1366   2   6   1.6706   0.4971   2.6488   0.7253   0.8515   1.9591   0.00    0.0
2024/01/31 14:19:46.000   52.354086991    4.957962086    19.3901   2   6   1.2663   0.4140   1.9612   0.5694   0.6886   1.4504   0.00    0.0
2024/01/31 14:19:47.000   52.354081099    4.957956730    20.5590   2   6   1.0622   0.3634   1.6354   0.4840   0.5976   1.2055   0.00    0.0
2024/01/31 14:19:48.000   52.354069091    4.957949310    19.6894   2   6   0.9331   0.3285   1.4336   0.4285   0.5364   1.0535   0.00    0.0
2024/01/31 14:19:49.000   52.354065616    4.957948484    20.3254   2   6   0.8435   0.3037   1.2961   0.3903   0.4941   0.9500   0.00    4.0
2024/01/31 14:19:50.000   52.354062790    4.957947902    19.9866   2   6   0.7754   0.2828   1.1910   0.3601   0.4590   0.8715   0.00    1.9
2024/01/31 14:19:51.000   52.354050793    4.957942048    19.2313   2   6   0.7212   0.2658   1.1078   0.3359   0.4306   0.8093   0.00    9.6
2024/01/31 14:19:52.000   52.354036484    4.957933945    17.8903   2   6   8.2716   1.1244  14.4804   3.0222   3.9991  10.9381   0.00   18.5
2024/01/31 14:19:53.000   52.354103611    4.957944679    31.4606   2   6   1.5999   0.3178   2.7209   0.6260   0.8170   2.0556   0.00   10.1
2024/01/31 14:19:54.000   52.354030214    4.957919779    17.1367   2   6   0.6362   0.2296   0.9515   0.2915   0.3624   0.6993   0.00   18.7
2024/01/31 14:19:55.000   52.354011860    4.957909781    12.8619   2   5   9.0387   1.1875  17.0633   2.7659   3.5774  12.2667   0.00    1.3
2024/01/31 14:19:56.000   52.354003232    4.957901325    12.8353   2   4   5.3064   0.7820  11.5411   1.6205   2.3039   7.8104   0.00    1.3
2024/01/31 14:19:57.000   52.354084614    4.957897727    31.9103   2   7   1.1637   0.5215   1.5786   0.7223   0.8124   1.1408   0.00    1.3
2024/01/31 14:19:58.000   52.354068586    4.957888228    30.8492   2   7   0.9474   0.4275   1.3719   0.5767   0.6821   0.9686   0.00    2.3
2024/01/31 14:19:59.000   52.354044099    4.957875895    27.8196   2   7   0.8280   0.3727   1.2347   0.4946   0.6007   0.8650   0.00    1.8
2024/01/31 14:20:00.000   52.354031220    4.957875528    27.4789   2   5   0.7118   0.3406   1.1267   0.4398   0.5631   0.8478   0.00    1.0
2024/01/31 14:20:01.000   52.354023235    4.957878226    26.0143   2   5   0.6780   0.3187   1.0563   0.4127   0.5237   0.7975   0.00    1.7
2024/01/31 14:20:02.000   52.354017094    4.957884025    24.7126   1   5   0.0697   0.0113   0.1262   0.0234   0.0290   0.0917   0.00    3.7
2024/01/31 14:20:03.000   52.354016989    4.957892964    24.3371   1   5   0.1142   0.0135   0.2157   0.0346   0.0459   0.1557   0.00   15.9
2024/01/31 14:20:04.000   52.353985347    4.957889492    19.0023   2   7   1.5678   0.3269   2.6752   0.6294   0.8191   2.0303   0.00    1.8
2024/01/31 14:20:05.000   52.353868212    4.957864184    -3.2849   2   7   1.0074   0.2525   1.6781   0.4034   0.5169   1.2743   0.00    1.1
2024/01/31 14:20:06.000   52.353968542    4.957881819    15.5847   2   5   0.5310   0.2309   0.8061   0.2944   0.3675   0.6041   0.00    1.0
2024/01/31 14:20:07.000   52.353964878    4.957881886    14.7148   2   6   0.5155   0.2236   0.7720   0.2860   0.3546   0.5803   0.00    1.5
2024/01/31 14:20:08.000   52.353949199    4.957873809    11.4807   1   7   0.0681   0.0105   0.1231   0.0223   0.0274   0.0895   0.00    7.4
2024/01/31 14:20:09.000   52.353946477    4.957872703    10.6947   2   7   0.4598   0.1951   0.6719   0.2443   0.2997   0.5046   0.00    1.3
2024/01/31 14:20:10.000   52.353945918    4.957877071    10.7042   2   5   0.4522   0.1910   0.6555   0.2402   0.2930   0.4932   0.00    1.4
2024/01/31 14:20:11.000   52.353951872    4.957882287    11.3346   1   7   0.0579   0.0125   0.1003   0.0231   0.0291   0.0746   0.00    4.3
2024/01/31 14:20:12.000   52.353952017    4.957882059    11.3480   1   7   0.0576   0.0119   0.0995   0.0228   0.0290   0.0743   0.00    9.3
2024/01/31 14:20:13.000   52.353918024    4.957874649     4.4232   2   7   1.5805   0.2802   2.6948   0.6169   0.8034   2.0515   0.00    1.0
2024/01/31 14:20:14.000   52.353912251    4.957875846     2.9498   2   7   1.1422   0.2291   1.9323   0.4558   0.5907   1.4693   0.00    1.0
2024/01/31 14:20:15.000   52.353924126    4.957881054     4.6490   2   7   0.9452   0.2069   1.5881   0.3840   0.4961   1.2062   0.00    1.0
2024/01/31 14:20:16.000   52.353935945    4.957885556     6.4883   2   7   0.8269   0.1933   1.3811   0.3410   0.4395   1.0478   0.00    1.0
2024/01/31 14:20:17.000   52.353933478    4.957886713     5.4247   2   7   0.7051   0.1752   1.1608   0.2891   0.3697   0.8810   0.00    1.0
2024/01/31 14:20:18.000   52.353935814    4.957890028     5.4518   2   7   0.6275   0.1634   1.0199   0.2560   0.3250   0.7742   0.00    1.0
2024/01/31 14:20:19.000   52.353965004    4.957894877    10.8929   2   7   0.3564   0.1460   0.5162   0.1763   0.2168   0.3829   0.00    1.2
2024/01/31 14:20:20.000   52.353965922    4.957895668    10.9171   2   7   0.3439   0.1414   0.4926   0.1695   0.2076   0.3653   0.00    2.5
2024/01/31 14:20:21.000   52.353969331    4.957897949    11.2988   2   7   0.3368   0.1390   0.4826   0.1662   0.2042   0.3573   0.00    1.8
2024/01/31 14:20:22.000   52.353974858    4.957900311    12.0954   2   7   0.3280   0.1366   0.4743   0.1640   0.2015   0.3493   0.00    1.7
2024/01/31 14:20:23.000   52.353977124    4.957901670    12.4673   2   6   0.3212   0.1345   0.4653   0.1615   0.1989   0.3418   0.00    1.1
2024/01/31 14:20:24.000   52.353978848    4.957902975    12.6349   2   6   0.3159   0.1324   0.4582   0.1587   0.1959   0.3362   0.00    1.1
2024/01/31 14:20:25.000   52.353978862    4.957903635    12.5852   2   6   0.3108   0.1304   0.4515   0.1559   0.1929   0.3307   0.00    1.0
2024/01/31 14:20:26.000   52.353980813    4.957911993    14.9533   2   7   0.3040   0.1271   0.4392   0.1512   0.1865   0.3218   0.00    1.8
2024/01/31 14:20:27.000   52.353964640    4.957902368    12.1505   2   7   0.2975   0.1240   0.4279   0.1467   0.1806   0.3135   0.00    1.3
2024/01/31 14:20:28.000   52.353953840    4.957896481    10.3056   2   7   0.2914   0.1211   0.4174   0.1426   0.1751   0.3056   0.00    1.4
2024/01/31 14:20:29.000   52.353946532    4.957893211     9.0248   2   7   0.2856   0.1185   0.4075   0.1387   0.1700   0.2983   0.00    1.7
2024/01/31 14:20:30.000   52.353940441    4.957890858     8.0761   2   7   0.2801   0.1160   0.3982   0.1350   0.1653   0.2913   0.00    1.5
2024/01/31 14:20:31.000   52.353933398    4.957884863     6.1632   2   7   0.2748   0.1136   0.3896   0.1316   0.1608   0.2848   0.00    2.0
2024/01/31 14:20:32.000   52.353933686    4.957886344     6.1148   2   7   0.2698   0.1114   0.3812   0.1283   0.1565   0.2784   0.00    1.6
2024/01/31 14:20:33.000   52.353934184    4.957888742     6.2164   2   7   0.2650   0.1093   0.3733   0.1252   0.1525   0.2725   0.00    1.1
2024/01/31 14:20:34.000   52.353935759    4.957891264     6.4648   2   7   0.2603   0.1073   0.3659   0.1223   0.1488   0.2668   0.00    1.3
2024/01/31 14:20:35.000   52.353935198    4.957892373     6.6374   2   7   0.2558   0.1054   0.3588   0.1195   0.1452   0.2614   0.00    1.0
2024/01/31 14:20:36.000   52.353935570    4.957894506     6.7443   2   7   0.2515   0.1036   0.3520   0.1169   0.1418   0.2561   0.00    1.3
2024/01/31 14:20:37.000   52.353935816    4.957894839     6.8330   2   7   0.2473   0.1019   0.3455   0.1143   0.1386   0.2511   0.00    1.0
2024/01/31 14:20:38.000   52.353935657    4.957895345     6.9309   2   7   0.2432   0.1003   0.3392   0.1119   0.1355   0.2462   0.00    1.1
2024/01/31 14:20:39.000   52.353936367    4.957897611     7.2143   2   6   0.2403   0.0989   0.3359   0.1101   0.1335   0.2432   0.00    2.7
2024/01/31 14:20:40.000   52.353936967    4.957899257     7.3960   2   7   0.2378   0.0975   0.3316   0.1085   0.1313   0.2403   0.00    1.7
2024/01/31 14:20:41.000   52.353937397    4.957899951     7.5186   2   7   0.2354   0.0962   0.3275   0.1069   0.1293   0.2376   0.00    1.3
2024/01/31 14:20:42.000   52.353938035    4.957901107     7.6011   2   7   0.2331   0.0950   0.3235   0.1054   0.1273   0.2350   0.00    1.0
2024/01/31 14:20:43.000   52.353938178    4.957901687     7.5733   2   7   0.2308   0.0938   0.3197   0.1040   0.1254   0.2324   0.00    1.1
2024/01/31 14:20:44.000   52.353937627    4.957901941     7.5321   2   7   0.2286   0.0927   0.3160   0.1026   0.1235   0.2299   0.00    1.0
2024/01/31 14:20:45.000   52.353936900    4.957902420     7.5300   2   7   0.2264   0.0915   0.3124   0.1012   0.1217   0.2274   0.00    1.0
2024/01/31 14:20:46.000   52.353935972    4.957901978     7.4560   2   7   0.2243   0.0905   0.3089   0.0999   0.1200   0.2250   0.00    1.0
2024/01/31 14:20:47.000   52.353935483    4.957902137     7.4756   2   7   0.2222   0.0894   0.3055   0.0986   0.1183   0.2226   0.00    1.3
2024/01/31 14:20:48.000   52.353934238    4.957901608     7.3708   2   7   0.2201   0.0884   0.3021   0.0974   0.1167   0.2203   0.00    1.4
2024/01/31 14:20:49.000   52.353933564    4.957901503     7.2925   2   7   0.2181   0.0874   0.2992   0.0962   0.1152   0.2182   0.00    1.3
2024/01/31 14:20:50.000   52.353932230    4.957900794     7.1048   2   7   0.2162   0.0865   0.2962   0.0951   0.1138   0.2161   0.00    1.5
2024/01/31 14:20:51.000   52.353932593    4.957901994     7.1297   2   7   0.2148   0.0859   0.2947   0.0945   0.1133   0.2150   0.00    1.8
2024/01/31 14:20:52.000   52.353931589    4.957901585     7.0512   2   7   0.2130   0.0850   0.2918   0.0934   0.1119   0.2130   0.00    2.0
2024/01/31 14:20:53.000   52.353931002    4.957901585     7.0466   2   7   0.2116   0.0845   0.2903   0.0929   0.1115   0.2119   0.00    2.0
2024/01/31 14:20:54.000   52.353930438    4.957901455     6.9998   2   7   0.2099   0.0836   0.2875   0.0918   0.1101   0.2099   0.00    1.9
2024/01/31 14:20:55.000   52.353929439    4.957901192     6.9027   2   7   0.2081   0.0828   0.2847   0.0908   0.1088   0.2080   0.00    1.8
