%  GPST                  latitude(deg) longitude(deg)  height(m)   Q  ns   sdn(m)   sde(m)   sdu(m)  sdne(m)  sdeu(m)  sdun(m) age(s)  ratio
2024/01/29 11:35:02.003   52.355258443    4.955658910    30.2263   5   3  23.2789   4.1855  18.6436   9.7444  -8.7175 -20.6783   0.00    0.0
2024/01/29 11:35:03.003   52.355446803    4.955725813    16.1377   2   4   1.2145   0.5787   1.8118  -0.4217  -0.2971   0.7615   0.00    0.0
2024/01/29 11:35:04.003   52.355276489    4.955674949    32.3013   5   3  23.2357   4.1286  18.5852   9.7516  -8.7202 -20.7289   0.00    0.0
2024/01/29 11:35:05.003   52.355407691    4.955658084    50.1722   5   4  30.0000  30.0000  30.0000   0.0000  -0.0000  -0.0000   0.00    0.0
2024/01/29 11:35:06.003   52.355483618    4.955812146    45.4498   5   2  24.7842  20.5484  27.6473 -19.2219  15.9548  14.0308   0.00    0.0
2024/01/29 11:35:07.003   52.355468531    4.955783637    47.3349   5   2  24.7836  20.5509  27.6459 -19.2214  15.9562  14.0331   0.00    0.0
2024/01/29 11:35:08.003   52.355403107    4.955652368    52.0594   5   2  25.7093  15.6634  29.9039 -19.8893   7.8354   6.0908   0.00    0.0
2024/01/29 11:35:09.003   52.355341697    4.955682244    21.4135   2   4   1.3761   0.7455   2.4429  -0.8010  -0.4066   1.2347   0.00    0.0
2024/01/29 11:35:10.003   52.355257097    4.955756653    17.4561   2   4   1.0044   0.5425   1.7380  -0.5423  -0.2580   0.8920   0.00    0.0
2024/01/29 11:35:11.003   52.355247054    4.955770708    15.1318   2   4   0.8322   0.4489   1.4226  -0.4321  -0.1970   0.7356   0.00    0.0
2024/01/29 11:35:12.003   52.355240343    4.955771640    12.9877   2   4   0.7268   0.3918   1.2337  -0.3684  -0.1628   0.6407   0.00    0.0
2024/01/29 11:35:13.003   52.355211782    4.955758102     5.6274   2   4   1.4671   0.7697   2.0213  -0.7227   0.4903   1.4215   0.00    0.0
2024/01/29 11:35:14.003   52.355230384    4.955749273     6.2689   2   4   1.0444   0.5499   1.4891  -0.5082   0.3123   0.9970   0.00    0.0
2024/01/29 11:35:15.003   52.355239878    4.955743896     6.2536   2   4   0.8553   0.4517   1.2483  -0.4126   0.2318   0.8072   0.00    0.0
2024/01/29 11:35:16.003   52.355244500    4.955739910     5.8594   2   4   0.7420   0.3928   1.1015  -0.3556   0.1839   0.6941   0.00    0.0
2024/01/29 11:35:17.003   52.355251268    4.955732713     5.7827   2   4   0.6644   0.3524   0.9992  -0.3168   0.1517   0.6172   0.00    0.0
2024/01/29 11:35:18.003   52.355255673    4.955727995     5.7097   2   4   0.6070   0.3225   0.9223  -0.2882   0.1283   0.5607   0.00    0.0
2024/01/29 11:35:19.000   52.355259077    4.955724176     5.6234   2   4   0.5623   0.2991   0.8616  -0.2660   0.1106   0.5169   1.00    0.0
2024/01/29 11:35:20.000   52.355280212    4.955703862     3.0395   2   4   1.4845   0.7945   2.4500  -0.6878  -0.2915   1.2934  -0.00    1.1
2024/01/29 11:35:21.000   52.355279071    4.955705493     3.2188   1   4   0.0153   0.0082   0.0255  -0.0071  -0.0028   0.0135   1.00   56.9
2024/01/29 11:35:22.000   52.355279867    4.955707297     3.5804   1   4   0.0150   0.0081   0.0249  -0.0069  -0.0025   0.0131  -0.00    4.0
2024/01/29 11:35:23.000   52.355280487    4.955709211     3.9116   1   4   0.0150   0.0081   0.0249  -0.0068  -0.0024   0.0131  -0.00   10.1
2024/01/29 11:35:24.000   52.355281018    4.955711932     4.3672   2   4   0.6684   0.3595   1.1054  -0.3058  -0.1112   0.5827  -0.00    2.8
2024/01/29 11:35:25.000   52.355280056    4.955715782     4.7371   2   4   0.6102   0.3283   1.0094  -0.2789  -0.1000   0.5320  -0.00    1.1
2024/01/29 11:35:26.000   52.355279511    4.955718252     5.3386   1   4   0.0150   0.0081   0.0249  -0.0068  -0.0024   0.0131  -0.00   11.4
2024/01/29 11:35:27.000   52.355278961    4.955719582     5.8116   1   4   0.0150   0.0081   0.0249  -0.0068  -0.0024   0.0131  -0.00    4.1
2024/01/29 11:35:28.000   52.355276679    4.955721604     6.3972   2   4   0.4981   0.2682   0.8247  -0.2272  -0.0785   0.4343  -0.00    2.6
2024/01/29 11:35:29.000   52.355480729    4.955526576    16.2560   5   3  24.7219  14.0376   9.6082 -18.6269 -11.5936  15.3906  -0.00    0.0
2024/01/29 11:35:30.000   52.355403336    4.955669294    47.3781   5   2  28.1462  12.4890  29.2145  16.8284  13.6392  -8.4147  -0.00    0.0
2024/01/29 11:35:31.000   52.355107005    4.955646194     7.2634   5   3  23.1621   4.2165  18.7785   9.7614  -8.7834 -20.7041  -0.00    0.0
2024/01/29 11:35:32.000   52.355403768    4.955628701    42.8587   5   4  30.0000  30.0000  30.0000   0.0000   0.0000   0.0000  -0.00    0.0
2024/01/29 11:35:33.000   52.355196443    4.955917739     6.2430   2   4   1.4777   0.7982   2.4299  -0.6730  -0.1922   1.2799  -0.00    0.0
2024/01/29 11:35:34.000   52.355175388    4.955897206     6.6952   2   4   1.3423   0.7402   1.7626  -0.7912  -0.4145   1.0476  -0.00    0.0
2024/01/29 11:35:35.000   52.355241231    4.955505970    30.1468   5   2  24.7252  14.0571   9.8202 -18.6233 -11.5547  15.3735  -0.00    0.0
2024/01/29 11:35:36.000   52.355579588    4.955461230    15.7219   5   3  24.7245  14.0563   9.8237 -18.6227 -11.5553  15.3756  -0.00    0.0
2024/01/29 11:35:37.000   52.355050534    4.955490550    34.2861   5   2  28.9191  17.2920  25.8245 -13.9870 -19.3463 -11.0380   1.00    0.0
2024/01/29 11:35:38.000   52.355483425    4.955470878    20.2627   5   3  24.7195  14.0424   9.7047 -18.6197 -11.5859  15.3979  -0.00    0.0
2024/01/29 11:35:39.000   52.355300309    4.955309549    48.7641   5   2  28.9176  17.2648  25.8230 -13.9972 -19.3555 -11.0427  -0.00    0.0
2024/01/29 11:35:40.000   52.355371423    4.955353703    36.4838   5   2  29.0480  19.2180  26.3544 -13.1422 -18.1711 -10.3666  -0.00    0.0
2024/01/29 11:35:43.000   52.355127806    4.955683660    22.7877   5   3  29.0232  18.8571  26.2605 -13.3102 -18.3965 -10.4944   1.00    0.0
2024/01/29 11:35:44.000   52.355495887    4.955545147    11.7923   5   3  24.7735  14.0829  10.2182 -18.5741 -11.6825  15.2448  -0.00    0.0
2024/01/29 11:35:45.000   52.355398125    4.955616161     4.0942   2   4   2.7532   0.8579   2.7495   0.6527  -1.0497  -1.9927  -0.00    0.0
2024/01/29 11:35:46.000   52.355390423    4.955595622     0.1998   2   4   2.5234   0.7902   2.7586   0.9013  -0.5520  -1.8025  -0.00    0.0
2024/01/29 11:35:47.000   52.355413864    4.955574509     2.1513   2   4   2.4582   0.6566   2.4161   0.9166  -0.7861  -1.9197   1.00    0.0
2024/01/29 11:35:48.000   52.355480041    4.955519744     0.6663   2   4   0.9986   0.4439   1.4221  -0.1247   0.0940   0.2349   1.00    0.0
2024/01/29 11:35:49.000   52.355620913    4.955416197    64.1928   5   4  30.0000  30.0000  30.0000   0.0000   0.0000   0.0000  -0.00    0.0
2024/01/29 11:35:50.000   52.355492445    4.955586819    43.8020   5   4  30.0000  30.0000  30.0000  -0.0000  -0.0000  -0.0000  -0.00    0.0
2024/01/29 11:35:51.000   52.355155032    4.955594227    30.9790   5   3  23.0823   4.2391  18.8707   9.7704  -8.8280 -20.7205  -0.00    0.0
2024/01/29 11:35:52.000   52.355279708    4.956024523    47.2189   5   3   6.9275   9.7124  27.5797   8.0670  16.3054  13.6967  -0.00    0.0
2024/01/29 11:35:53.000   52.355005404    4.956102711    13.0761   2   4   1.0816   0.6880   2.0697  -0.3400   0.6483   1.0674  -0.00    0.0
2024/01/29 11:35:54.000   52.355004938    4.956045759    11.6515   2   4   0.8698   0.5156   1.5645  -0.3352   0.3701   0.8115  -0.00    0.0
2024/01/29 11:35:56.000   52.354974488    4.955982123   -50.1755   2   4   1.3957   0.7247   2.7478  -0.8626   0.1189   0.8671  -0.00    0.0
2024/01/29 11:36:04.000   52.355531223    4.956663555   141.2131   5   3   8.0364   9.8394  27.6011   8.4297  16.3061  13.4315  -0.00    0.0
2024/01/29 11:36:05.000   52.355908704    4.956473418   193.7445   5   3   6.9196   9.7915  27.5610   8.0849  16.3652  13.6541  -0.00    0.0
2024/01/29 11:36:06.000   52.355555012    4.956547411   137.0009   5   3   6.8181   9.7582  27.5577   8.1149  16.3746  13.6575  -0.00    0.0
2024/01/29 11:36:10.000   52.355355734    4.956238834    38.6692   5   4  30.0000  30.0000  30.0000   0.0000   0.0000   0.0000  -0.00    0.0
2024/01/29 11:36:12.000   52.355134603    4.955957311    -1.4777   5   3   1.4742   0.8003   2.4389  -0.6635  -0.0942   1.2812  -0.00    0.0
2024/01/29 11:36:13.000   52.355130751    4.955956274    -5.0039   5   3   1.3404   0.7406   1.7655  -0.7873  -0.4030   1.0488  -0.00    0.0
2024/01/29 11:36:15.000   52.355517589    4.956565220   129.1833   5   3   6.8515   9.8347  27.5434   8.0772  16.4172  13.6341  -0.00    0.0
2024/01/29 11:36:16.000   52.355587465    4.956567837   161.7324   5   4  30.0000  30.0000  30.0000   0.0000   0.0000   0.0000  -0.00    0.0
2024/01/29 11:36:17.000   52.355605679    4.956808903   166.6306   5   3   6.8638   9.8624  27.5421   8.0928  16.4214  13.6232  -0.00    0.0
2024/01/29 11:36:18.000   52.355659309    4.956831970   165.9255   5   3   6.8029   9.8383  27.5393   8.1129  16.4301  13.6234  -0.00    0.0
2024/01/29 11:36:19.000   52.355480316    4.956489867    90.3254   5   3   6.7807   9.8343  27.5373   8.1204  16.4361  13.6217  -0.00    0.0
2024/01/29 11:36:21.000   52.355689730    4.956333421   147.2641   5   4  30.0000  30.0000  30.0000   0.0000  -0.0000   0.0000  -0.00    0.0
2024/01/29 11:36:22.000   52.355578620    4.956626051   136.8363   5   3   6.8513   9.8924  27.5344   8.0980  16.4444  13.6087  -0.00    0.0
2024/01/29 11:36:23.000   52.355691833    4.956859427   189.7590   5   3   6.7903   9.8684  27.5316   8.1179  16.4531  13.6088  -0.00    0.0
2024/01/29 11:36:24.000   52.355347126    4.956011353    27.5489   2   4   0.9041   0.6509   1.9152   0.0362   0.7666   0.9728  -0.00    0.0
2024/01/29 11:36:25.000   52.355484034    4.956287361    87.1986   5   3   6.7624   9.9088  27.5290   8.1124  16.4572  13.6076  -0.00    0.0
2024/01/29 11:36:26.000   52.355816065    4.956615694   177.2863   5   2  24.7365  20.7418  27.5361 -19.1805  16.0644  14.2160  -0.00    0.0
2024/01/29 11:36:28.000   52.355284720    4.956123053    56.4467   5   3   6.8349   9.9284  27.5249   8.1039  16.4720  13.5917  -0.00    0.0
2024/01/29 11:36:29.000   52.355442304    4.956185434    78.7220   5   3   6.8340   9.9344  27.5235   8.1052  16.4765  13.5884   1.00    0.0
2024/01/29 11:36:30.000   52.355477615    4.956377974   103.5850   5   3   6.7730   9.9106  27.5207   8.1250  16.4852  13.5885  -0.00    0.0
2024/01/29 11:36:55.000   52.355333585    4.955556900    26.4893   5   4  30.0000  30.0000  30.0000   0.0000   0.0000  -0.0000  -0.00    0.0
2024/01/29 11:37:02.000   52.355624793    4.955343447    59.1949   5   4  30.0000  30.0000  30.0000   0.0000   0.0000   0.0000  -0.00    0.0
2024/01/29 11:37:17.000   52.355513916    4.955417045     8.1412   5   3  24.6692  13.9722  10.0771 -18.5455 -11.6771  15.5679  -0.00    0.0
2024/01/29 11:37:19.000   52.355418031    4.955467813    25.5980   5   4  30.0000  30.0000  30.0000   0.0000  -0.0000   0.0000  -0.00    0.0
2024/01/29 11:37:20.000   52.355338673    4.956047354    37.4933   5   2  27.8436  13.3927  29.1037  17.3151  13.9779  -9.0159  -0.00    0.0
2024/01/29 11:37:21.000   52.355537750    4.955510054    65.6346   5   2  25.6560  15.8150  29.8653 -19.9095   8.5084   6.6449  -0.00    0.0
2024/01/29 11:37:22.000   52.355423718    4.955600253    34.9579   5   4  30.0000  30.0000  30.0000   0.0000   0.0000   0.0000  -0.00    0.0
2024/01/29 11:37:24.000   52.355475645    4.955637741   103.0682   5   3   9.8239   2.8773  28.2214  -5.2782  -8.9041  16.6082  -0.00    0.0
2024/01/29 11:37:25.000   52.355264283    4.955653979    40.9593   2   4   0.9297   0.6718   1.9433  -0.1506   0.7495   1.0047  -0.00    0.0
2024/01/29 11:37:26.000   52.355251682    4.955834668    52.0015   5   3   6.6081  10.2336  27.4299   8.1863  16.7383  13.4291  -0.00    0.0
2024/01/29 11:37:28.000   52.355047403    4.955780943   -32.4928   5   4  30.0000  30.0000  30.0000  -0.0000   0.0000  -0.0000  -0.00    0.0
2024/01/29 11:37:29.000   52.355225535    4.955741915     9.6718   5   3   9.8380   2.9013  28.2306  -5.2509  -8.8605  16.5916  -0.00    0.0
2024/01/29 11:37:36.000   52.355631546    4.955331975    72.2353   5   4  30.0000  30.0000  30.0000   0.0000   0.0000   0.0000  -0.00    0.0
2024/01/29 11:37:37.000   52.354940257    4.955165247    71.8433   5   3  22.6637   4.3323  19.3431   9.7960  -9.0376 -20.7965   1.00    0.0
2024/01/29 11:38:21.000   52.355627677    4.955436868    -2.8086   2   4   1.4152   0.7885   2.4113  -0.5956   0.3205   1.2152  -0.00    0.0
2024/01/29 11:38:22.000   52.355621027    4.955477367     1.3066   2   4   1.0052   0.5599   1.7157  -0.4220   0.2269   0.8635  -0.00    0.0
2024/01/29 11:38:23.000   52.355665102    4.955419403     1.4914   2   4   0.8219   0.4578   1.4038  -0.3446   0.1859   0.7061  -0.00    0.0
2024/01/29 11:38:24.000   52.355678923    4.955383121     0.9302   2   4   0.7122   0.3967   1.2170  -0.2984   0.1616   0.6119   1.00    0.0
2024/01/29 11:38:25.000   52.355760234    4.955706073    54.6060   5   2  24.6704  21.0391  27.3662 -19.1062  16.2133  14.4850  -0.00    0.0
2024/01/29 11:38:26.000   52.355632829    4.955336642    -9.2646   5   3  24.6260  13.9092  10.1676 -18.4897 -11.7556  15.7215  -0.00    0.0
2024/01/29 11:38:27.000   52.355443853    4.955485143   -20.0683   2   4   1.2715   0.7087   1.4785  -0.7492   0.1522   1.0806  -0.00    0.0
2024/01/29 11:38:28.000   52.355531386    4.955377663   -18.6129   2   4   0.9334   0.5188   1.2246  -0.5030   0.2338   0.8254  -0.00    0.0
2024/01/29 11:38:30.000   52.355813520    4.955286912    47.9378   2   4   1.4798   0.7952   2.4581  -0.5497   0.3095   1.1351  -0.00    0.0
2024/01/29 11:38:31.000   52.355472232    4.955009281    32.6387   5   2  28.9075  16.7534  26.1578 -14.1295 -19.1195 -10.8554   1.00    0.0
2024/01/29 11:38:32.000   52.355359112    4.955533265    25.0670   5   2  29.8818   4.4407  29.7994   8.8851 -10.1375   3.0358   1.00    0.0
2024/01/29 11:38:33.000   52.355519583    4.955553531    16.5953   5   3   9.6459   2.5704  28.3276  -4.8682  -8.3069  16.4575  -0.00    0.0
2024/01/29 11:38:34.000   52.355515630    4.955558441     7.4614   2   4   1.1351   0.5731   2.3633  -0.4927  -0.4078   1.2749  -0.00    0.0
2024/01/29 11:38:53.000   52.355210111    4.955790664     3.4421   5   4  30.0000  30.0000  30.0000   0.0000   0.0000   0.0000  -0.00    0.0
2024/01/29 11:39:00.000   52.355532379    4.955670649    23.1802   5   3   9.5677   2.4339  28.3661  -4.7058  -8.0600  16.4014  -0.00    0.0
2024/01/29 11:39:05.000   52.355420844    4.955686312    25.4597   5   2  10.7644  29.4006  28.6538 -12.9262   7.2815  15.7742   1.00    0.0
2024/01/29 11:39:09.000   52.355441886    4.955698726    38.0620   5   3   9.5434   2.3882  28.3786  -4.6496  -7.9760  16.3826  -0.00    0.0
2024/01/29 11:39:12.000   52.355469415    4.955660411    18.7080   2   4   1.1309   0.5732   2.3585  -0.4845  -0.3675   1.2672  -0.00    0.0
2024/01/29 11:39:27.000   52.355436495    4.955641022    13.2740   5   3   9.4930   2.2946  28.4031  -4.5371  -7.8050  16.3453  -0.00    0.0
2024/01/29 11:39:28.000   52.355515178    4.955631762    48.4650   5   2  10.6676  29.4157  28.6632 -12.8536   7.2235  15.7576  -0.00    0.0
2024/01/29 11:39:29.000   52.355821968    4.955444399    66.1221   5   4  30.0000  30.0000  30.0000   0.0000   0.0000   0.0000  -0.00    0.0
2024/01/29 11:39:30.000   52.355682446    4.955300769    11.6445   5   3  24.5983  13.8471  10.4149 -18.4347 -11.8284  15.8191   1.00    0.0
2024/01/29 11:39:32.000   52.355476166    4.955483952   -18.5399   2   4   1.2658   0.7137   1.7436  -0.7147  -0.2593   0.9883  -0.00    0.0
2024/01/29 11:39:33.000   52.355465946    4.955485973   -25.0018   2   4   0.9293   0.5243   1.4123  -0.4740   0.0646   0.7518  -0.00    0.0
